[
    {
        "city": "Ulm",
        "country": "Germany",
        "longitude": "9.993682",
        "latitude": "48.401082",
        "start_year": 1879,
        "end_year": 1880,
        "description": "Albert Einstein was born in Ulm, Germany, on March 14, 1879.",
        "is_deceased": false
    },
    {
        "city": "Munich",
        "country": "Germany",
        "longitude": "11.5820",
        "latitude": "48.1351",
        "start_year": 1880,
        "end_year": 1894,
        "description": "Einstein's family moved to Munich where he began his schooling.",
        "is_deceased": false
    },
    {
        "city": "Milan",
        "country": "Italy",
        "longitude": "9.185924",
        "latitude": "45.464204",
        "start_year": 1895,
        "end_year": 1896,
        "description": "Albert Einstein attended school in Milan for a year.",
        "is_deceased": false
    },
    {
        "city": "Zurich",
        "country": "Switzerland",
        "longitude": "8.5417",
        "latitude": "47.3769",
        "start_year": 1896,
        "end_year": 1900,
        "description": "Einstein studied at ETH Zurich and the University of Zurich.",
        "is_deceased": false
    },
    {
        "city": "Bern",
        "country": "Switzerland",
        "longitude": "7.4474",
        "latitude": "46.9480",
        "start_year": 1903,
        "end_year": 1905,
        "description": "Albert Einstein worked at the Swiss Patent Office in Bern.",
        "is_deceased": true
    },
    {
        "city": "Prague",
        "country": "Czech Republic",
        "longitude": "14.4213",
        "latitude": "50.0878",
        "start_year": 1911,
        "end_year": 1912,
        "description": "Einstein was a professor at the German University in Prague."
    },
    {
        "city": "Berlin",
        "country": "Germany",
        "longitude": "13.4050",
        "latitude": "52.5200",
        "start_year": 1914,
        "end_year": 1932,
        "description": "Albert Einstein became a member of the Prussian Academy of Sciences in Berlin."
    },
    {
        "city": "Princeton",
        "country": "United States",
        "longitude": "-74.6590",
        "latitude": "40.3487",
        "start_year": 1933,
        "end_year": 1955,
        "description": "Einstein moved to Princeton and worked at the Institute for Advanced Study."
    }
]
